[{"region":"alsace","title":"Château de Lichtenberg","longitude":"7.48648979999996","latitude":"48.9212148","website":"www.chateaudelichtenberg.com","popularity":1,"address":"Rue des Cochers, 67340 Lichtenberg","category":"historical","wiki":"338248"},{"region":"alsace","title":"Ligne Maginot Fort Schoenenbourg","longitude":"7.91237179999996","latitude":"48.9664995","website":"www.lignemaginot.com","popularity":1,"address":"Rue Commandant Martial Reynier, 67250 Hunspach","category":"historical","wiki":"381733"},{"region":"alsace","title":"Cathédrale Notre Dame de Strasbourg","longitude":"7.75103480000007","latitude":"48.5818799","website":"www.cathedrale-strasbourg.fr","popularity":1,"address":"Place de la Cathédrale, 67000 Strasbourg","category":"historical","wiki":"2713920"},{"region":"alsace","title":"Petite France","longitude":"7.74151089999998","latitude":"48.5811142","website":"https://www.visitstrasbourg.fr/decouvrir-strasbourg/les-incontournables/la-petite-france/","popularity":1,"address":"Petite France, 67000 Strasbourg","category":"city","wiki":"3234362"},{"region":"alsace","title":"Marché De Noël De Strasbourg","longitude":"7.74854030000006","latitude":"48.5847329","website":"https://noel.strasbourg.eu/","popularity":3,"address":"29 Rue de la Nuée-Bleue, 67000 Strasbourg","category":"event","wiki":"2055677"},{"region":"alsace","title":"Mittelbergheim","longitude":"7.44211799999994","latitude":"48.39611","website":"","popularity":1,"address":"67140 Mittelbergheim","category":"city","wiki":"297312"},{"region":"alsace","title":"Château du Haut-Kœnigsbourg","longitude":"7.34448309999993","latitude":"48.2494853","website":"www.haut-koenigsbourg.fr","popularity":1,"address":"67600 Orschwiller","category":"historical","wiki":"213261"},{"region":"alsace","title":"Bibliothèque Humaniste","longitude":"7.45505849999995","latitude":"48.2603588","website":"www.bibliotheque-humaniste.fr","popularity":1,"address":"1 Place Dr Maurice Kubler, 67600 Sélestat","category":"historical","wiki":"1793329"},{"region":"alsace","title":"Saint-Hippolyte","longitude":"7.36795299999994","latitude":"48.233309","website":"","popularity":1,"address":"68590 Saint-Hippolyte","category":"city","wiki":"288729"},{"region":"alsace","title":"Bergheim","longitude":"7.36217499999998","latitude":"48.2056619","website":"","popularity":1,"address":"68750 Bergheim","category":"city","wiki":"288405"},{"region":"alsace","title":"Massif du Taennchel","longitude":"7.25876300000004","latitude":"48.234898","website":"","popularity":1,"address":"Massif du Taennchel, 68150 Ribeauvillé","category":"nature","wiki":"1276065"},{"region":"alsace","title":"Route des Vins","longitude":"7.30386320000002","latitude":"48.1326669","website":"https://www.route-des-vins-alsace.com","popularity":3,"address":"","category":"nature","wiki":"94307"},{"region":"alsace","title":"Les Menetriers","longitude":"7.31909099999996","latitude":"48.194668","website":"https://www.visit.alsace/","popularity":1,"address":"68150 Ribeauvillé","category":"event","wiki":"288698"},{"region":"alsace","title":"Hunawihr","longitude":"7.30907200000001","latitude":"48.179362","website":"","popularity":1,"address":"68150 Hunawihr","category":"city","wiki":"288567"},{"region":"alsace","title":"Riquewihr","longitude":"7.29982199999995","latitude":"48.166158","website":"","popularity":1,"address":"68340 Riquewihr","category":"city","wiki":"40198"},{"region":"alsace","title":"Kaysersberg","longitude":"7.26402299999995","latitude":"48.13889","website":"www.ville-kaysersberg.fr","popularity":1,"address":"68240 Kaysersberg","category":"city","wiki":"288582"},{"region":"alsace","title":"Niedermorschwihr","longitude":"7.27360099999999","latitude":"48.099556","website":"","popularity":1,"address":"68230 Niedermorschwihr","category":"city","wiki":"288657"},{"region":"alsace","title":"Colmar","longitude":"7.35851200000002","latitude":"48.0793589","website":"www.colmar.fr","popularity":1,"address":"68000 Colmar","category":"city","wiki":"10320"},{"region":"alsace","title":"Musée Unterlinden","longitude":"7.35553449999998","latitude":"48.0798414","website":"www.musee-unterlinden.com","popularity":1,"address":"1 Rue des Unterlinden, 68000 Colmar","category":"museum","wiki":"1017465"},{"region":"alsace","title":"Eguisheim","longitude":"7.30652199999997","latitude":"48.043265","website":"","popularity":1,"address":"68420 Eguisheim","category":"city","wiki":"288462"},{"region":"alsace","title":"Vallée de Munster","longitude":"7.13832869999999","latitude":"48.039683","website":"www.vallee-munster.eu","popularity":1,"address":"1 Rue du Couvent, 68140 Munster","category":"nature","wiki":"264880"},{"region":"alsace","title":"Parc de Wesserling - Écomusée Textile","longitude":"6.99829299999999","latitude":"47.884641","website":"www.parc-wesserling.fr","popularity":1,"address":"Rue du Parc, 68470 Husseren-Wesserling","category":"museum","wiki":"7339674"},{"region":"alsace","title":"Cité de l'Automobile","longitude":"7.32777220000003","latitude":"47.761378","website":"www.citedelautomobile.com","popularity":1,"address":"17 Rue de la Mertzau, 68100 Mulhouse","category":"museum","wiki":"324821"},{"region":"alsace","title":"La Collégiale Saint Thiébaut","longitude":"7.10140249999995","latitude":"47.8110308","website":"www.hautes-vosges-alsace.fr","popularity":1,"address":"10 Place Joffre, 68800 Thann","category":"historical","wiki":"2842113"},{"region":"aquitaine","title":"Fêtes De Bayonne","longitude":"-1.47515859999999","latitude":"43.4933617","website":"http://m.fetes.bayonne.fr/","popularity":1,"address":"64100 Bayonne","category":"event"},{"region":"aquitaine","title":"Bayonne","longitude":"-1.47484099999997","latitude":"43.492949","website":"","popularity":1,"address":"64100 Bayonne","category":"city"},{"region":"aquitaine","title":"Plage de la Madrague","longitude":"-1.53485750000004","latitude":"43.5108537","website":"","popularity":1,"address":"3 Avenue de Bayonne, 64600 Anglet","category":"nature"},{"region":"aquitaine","title":"Biarritz","longitude":"-1.558626","latitude":"43.4831519","website":"www.ville-biarritz.fr","popularity":1,"address":"64200 Biarritz","category":"city"},{"region":"aquitaine","title":"Saint-Jean-de-Luz","longitude":"-1.66305499999999","latitude":"43.388051","website":"","popularity":1,"address":"64500 Saint-Jean-de-Luz","category":"city"},{"region":"aquitaine","title":"La Rhune","longitude":"-1.63526339999999","latitude":"43.3092177","website":"","popularity":1,"address":"La Rhune, 64310 Ascain","category":"city"},{"region":"aquitaine","title":"Urepel","longitude":"-1.41639399999997","latitude":"43.069581","website":"","popularity":1,"address":"64430 Urepel","category":"city"},{"region":"aquitaine","title":"Saint-Jean-Pied-de-Port","longitude":"-1.23811000000001","latitude":"43.163141","website":"","popularity":1,"address":"64220 Saint-Jean-Pied-de-Port","category":"city"},{"region":"aquitaine","title":"Grottes d'Isturitz et d'Oxocelhaya","longitude":"-1.200515","latitude":"43.354133","website":"www.grottes-isturitz.com","popularity":1,"address":"Quartier Herebehere, 64640 Saint-Martin-d'Arberoue","category":"museum"},{"region":"aquitaine","title":"Gorges de Kakuetta","longitude":"-0.83993369999996","latitude":"42.9980582","website":"www.sainte-engrace.com","popularity":1,"address":"64560 Sainte-Engrace, France","category":"nature"},{"region":"aquitaine","title":"Accueil grotte de La Verna","longitude":"-0.820245999999997","latitude":"42.996047","website":"www.laverna.fr","popularity":1,"address":"Espace accueil Arrakotchepia, Quartier Calla, 64560 Sainte-Engrace","category":"museum"},{"region":"aquitaine","title":"Lac d'Artouste","longitude":"-0.331309899999951","latitude":"42.8596549","website":"","popularity":1,"address":"Lac d'Artouste, 64440 Laruns","category":"nature"},{"region":"aquitaine","title":"Phare de Cordouan","longitude":"-1.17335260000004","latitude":"45.5863295","website":"www.phare-de-cordouan.fr","popularity":1,"address":"33123 Le Verdon-sur-Mer","category":"historical"},{"region":"aquitaine","title":"Bordeaux","longitude":"-0.579179999999951","latitude":"44.837789","website":"www.bordeaux.fr","popularity":1,"address":"33000 Bordeaux","category":"city"},{"region":"aquitaine","title":"Saint-Émilion","longitude":"-0.155729000000065","latitude":"44.894387","website":"https://www.saint-emilion-tourisme.com/","popularity":1,"address":"33330 Saint-Émilion","category":"city"},{"region":"aquitaine","title":"Cadillac","longitude":"-0.320480999999972","latitude":"44.637022","website":"","popularity":1,"address":"33410 Cadillac","category":"city"},{"region":"aquitaine","title":"Festival Les Nuits Atypiques","longitude":"-0.224990599999956","latitude":"44.56337","website":"www.nuitsatypiques.org","popularity":1,"address":"Le Bourg, 33490 Saint-Macaire","category":"event"},{"region":"aquitaine","title":"Castelmoron-d'Albret","longitude":"-0.0114230000000362","latitude":"44.679934","website":"","popularity":1,"address":"33540 Castelmoron-d'Albret","category":"city"},{"region":"aquitaine","title":"Bassin d'Arcachon","longitude":"-1.11611659999994","latitude":"44.6764023","website":"","popularity":3,"address":"Bassin d'Arcachon","category":"nature"},{"region":"aquitaine","title":"Dune du Pilat","longitude":"-1.21333379999999","latitude":"44.5896525","website":"https://www.ladunedupilat.com/","popularity":3,"address":"Dune du Pilat","category":"nature"},{"region":"aquitaine","title":"Cap Ferret","longitude":"-1.25269100000003","latitude":"44.61731","website":"","popularity":1,"address":"Cap Ferret","category":"nature"},{"region":"aquitaine","title":"Labastide-d'Armagnac","longitude":"-0.185619999999972","latitude":"43.969386","website":"","popularity":1,"address":"40240 Labastide-d'Armagnac","category":"city"},{"region":"aquitaine","title":"Écomusée de Marquèze","longitude":"-0.747204399999987","latitude":"44.1490722","website":"www.marqueze.fr","popularity":1,"address":"Route de Solférino, 40630 Sabres","category":"museum"},{"region":"aquitaine","title":"Monflanquin","longitude":"0.767716999999948","latitude":"44.532748","website":"","popularity":1,"address":"47150 Monflanquin","category":"city"},{"region":"aquitaine","title":"Pujols","longitude":"0.690210999999977","latitude":"44.386482","website":"","popularity":1,"address":"47300 Pujols","category":"city"},{"region":"aquitaine","title":"Musée des Beaux-Arts d’Agen","longitude":"0.616106700000046","latitude":"44.203152","website":"https://www.agen.fr/mes-loisirs/culture/musee-des-beaux-arts-356.html","popularity":1,"address":"Place Dr Esquirol, 47916 Agen","category":"museum"},{"region":"aquitaine","title":"Vesunna, musée gallo-romain","longitude":"0.713211000000001","latitude":"45.179562","website":"www.perigueux-vesunna.fr","popularity":1,"address":"Parc de Vésone, 20 Rue 26ème Régiment d'Infanterie, 24000 Périgueux","category":"museum"},{"region":"aquitaine","title":"Abbaye de Brantôme","longitude":"0.647239500000069","latitude":"45.3645521","website":"www.perigord-dronne-belle.fr","popularity":1,"address":"14 Boulevard Charlemagne, 24310 Brantôme","category":"historical"},{"region":"aquitaine","title":"Grottes de Lascaux","longitude":"1.16818590000003","latitude":"45.0538453","website":"www.lascaux-ii.fr","popularity":3,"address":"Lieu-dit Lascaux, 24290 Montignac","category":"historical"},{"region":"aquitaine","title":"Eyrignac et ses jardins","longitude":"1.31616899999995","latitude":"44.9398727","website":"www.eyrignac.com","popularity":1,"address":"Eyrignac, 24590 Salignac-Eyvigues","category":"nature"},{"region":"aquitaine","title":"Sarlat-la-Canéda","longitude":"1.21729200000004","latitude":"44.890891","website":"www.sarlat.fr","popularity":1,"address":"24200 Sarlat-la-Canéda","category":"city"},{"region":"aquitaine","title":"Les Jardins de Marqueyssac","longitude":"1.16461849999996","latitude":"44.8254622","website":"www.marqueyssac.com","popularity":1,"address":"Les Jardins de Marqueyssac, 24220 Vezac","category":"nature"},{"region":"aquitaine","title":"La Roque-Gageac","longitude":"1.184259","latitude":"44.825047","website":"","popularity":1,"address":"Roque-Gageac","category":"historical"},{"region":"aquitaine","title":"Beynac-et-Cazenac","longitude":"1.14127699999995","latitude":"44.8406","website":"","popularity":1,"address":"24220 Beynac-et-Cazenac","category":"city"},{"region":"aquitaine","title":"Gouffre de Proumeyssac","longitude":"0.934737899999959","latitude":"44.8910883","website":"http://www.gouffre-proumeyssac.com/","popularity":1,"address":"Gouffre de Proumeyssac, 24260 Audrix","category":"nature"},{"region":"aquitaine","title":"Monpazier","longitude":"0.89536899999996","latitude":"44.682654","website":"","popularity":1,"address":"24540 Monpazier","category":"city"},{"region":"aquitaine","title":"Château de Biron","longitude":"0.872340000000008","latitude":"44.632138","website":"www.chateau-biron.fr","popularity":1,"address":"Le Bourg S, 24540 Vergt-de-Biron","category":"historical"},{"region":"auvergne","title":"Puy de Dôme","longitude":"2.96245049999993","latitude":"45.7720165","website":"","popularity":1,"address":"Puy de Dôme, 63870 Orcines","category":"nature"},{"region":"auvergne","title":"Vulcania","longitude":"2.94255610000005","latitude":"45.8137975","website":"www.vulcania.com","popularity":3,"address":"Route de Mazayes, 63230 Saint-Ours","category":"museum"},{"region":"auvergne","title":"Clermont-Ferrand","longitude":"3.08702500000004","latitude":"45.777222","website":"www.clermont-ferrand.fr","popularity":1,"address":"63000 Clermont-Ferrand","category":"city"},{"region":"auvergne","title":"Saint-Saturnin","longitude":"3.09036300000002","latitude":"45.660653","website":"","popularity":1,"address":"63450 Saint-Saturnin","category":"city"},{"region":"auvergne","title":"Basilique Notre-Dame d'Orcival","longitude":"2.84149579999996","latitude":"45.6829305","website":"www.auvergnevolcansancy.com","popularity":1,"address":"Place de la Basilique, 63210 Orcival","category":"historical"},{"region":"auvergne","title":"Puy de Sancy","longitude":"2.81393000000003","latitude":"45.528387","website":"","popularity":3,"address":"Puy de Sancy, 63680 Mont-Dore","category":"nature"},{"region":"auvergne","title":"Château de Murol","longitude":"2.9459531","latitude":"45.5786876","website":"www.murolchateau.com","popularity":1,"address":"Rue du Château, 63790 Murol","category":"historical"},{"region":"auvergne","title":"Vallée de Chaudefour","longitude":"2.88958400000001","latitude":"45.561075","website":"","popularity":1,"address":"Vallée de Chaudefour, 63790 Chambon-sur-Lac","category":"nature"},{"region":"auvergne","title":"Lac Pavin","longitude":"2.88686570000004","latitude":"45.498973","website":"","popularity":1,"address":"Lac Pavin, 63610 Besse-et-Saint-Anastaise","category":"nature"},{"region":"auvergne","title":"Cézallier","longitude":"2.98694399999999","latitude":"45.333889","website":"","popularity":1,"address":"Cézallier, 63420 Anzat-le-Luguet","category":"city"},{"region":"auvergne","title":"Abbatiale Saint-Austremoine d'Issoire","longitude":"3.24996229999999","latitude":"45.5435757","website":"www.issoire-tourisme.com","popularity":1,"address":"Place Saint-Paul, 63500 Issoire","category":"historical"},{"region":"auvergne","title":"Château de Villeneuve-Lembron","longitude":"3.18590199999994","latitude":"45.478005","website":"www.villeneuve-lembron.monuments-nationaux.fr","popularity":1,"address":"Château de Villeneuve-Lembron, 63340 Villeneuve-Lembron","category":"historical"},{"region":"auvergne","title":"Montpeyroux","longitude":"3.20324900000003","latitude":"45.621567","website":"","popularity":1,"address":"63114 Montpeyroux","category":"city"},{"region":"auvergne","title":"Thiers","longitude":"3.54517699999997","latitude":"45.857907","website":"","popularity":1,"address":"63300 Thiers","category":"city"},{"region":"auvergne","title":"Le Puy-en-Velay","longitude":"3.88293599999997","latitude":"45.042768","website":"","popularity":1,"address":"43000 Le Puy-en-Velay","category":"nature"},{"region":"auvergne","title":"Rocher Saint-Michel d'Aiguilhe","longitude":"3.88252069999999","latitude":"45.0499653","website":"www.rochersaintmichel.fr","popularity":1,"address":"Rue du Rocher, 43000 Aiguilhe","category":"nature"},{"region":"auvergne","title":"Abbaye de la Chaise-Dieu","longitude":"3.69661380000002","latitude":"45.320905","website":"www.abbaye-chaise-dieu.com","popularity":1,"address":"140 Place de la Mairie, 43160 La Chaise-Dieu","category":"historical"},{"region":"auvergne","title":"Léotoing","longitude":"3.22233400000005","latitude":"45.362115","website":"","popularity":1,"address":"43410 Léotoing","category":"city"},{"region":"auvergne","title":"Blesle","longitude":"3.17025599999999","latitude":"45.318937","website":"","popularity":1,"address":"43450 Blesle","category":"city"},{"region":"auvergne","title":"Lavoûte-Chilhac","longitude":"3.40179499999999","latitude":"45.147678","website":"","popularity":1,"address":"43380 Lavoûte-Chilhac","category":"city"},{"region":"auvergne","title":"Château de Chavaniac","longitude":"3.57914430000005","latitude":"45.1576028","website":"www.chateau-lafayette.com","popularity":1,"address":"Le Château, 43230 Chavaniac-Lafayette","category":"historical"},{"region":"auvergne","title":"Pradelles","longitude":"3.88201800000002","latitude":"44.769875","website":"","popularity":1,"address":"43420 Pradelles","category":"city"},{"region":"auvergne","title":"Lac du Bouchet","longitude":"3.78796209999996","latitude":"44.9081953","website":"","popularity":1,"address":"Lac du Bouchet, 43510","category":"nature"},{"region":"auvergne","title":"Château d'Arlempdes","longitude":"3.92370700000004","latitude":"44.8662037","website":"","popularity":1,"address":"Le Bourg, 43490 Arlempdes","category":"historical"},{"region":"auvergne","title":"Mont Mézenc","longitude":"4.19081600000004","latitude":"44.913477","website":"","popularity":1,"address":"Mont Mézenc, 07310 Borée","category":"nature"},{"region":"auvergne","title":"Festival International de théâtre de rue","longitude":"2.444478","latitude":"44.931079","website":"www.aurillac.net","popularity":1,"address":"20 Rue de la Coste, 15000 Aurillac","category":"event"},{"region":"auvergne","title":"Tournemire","longitude":"2.48474799999997","latitude":"45.05215","website":"","popularity":1,"address":"15310 Tournemire","category":"city"},{"region":"auvergne","title":"Salers","longitude":"2.49380900000006","latitude":"45.137854","website":"","popularity":1,"address":"15140 Salers","category":"city"},{"region":"auvergne","title":"Château de Pesteils","longitude":"2.57550000000003","latitude":"44.953486","website":"chateau-pesteils-cantal.com","popularity":1,"address":"15800 Polminhac","category":"historical"},{"region":"auvergne","title":"Allanche, Fête de l'Estive","longitude":"2.93455700000004","latitude":"45.229086","website":"https://www.lesamisduvieilallanche.fr/","popularity":1,"address":"15160 Allanche","category":"event"},{"region":"auvergne","title":"Viaduc de Garabit","longitude":"3.17766400000005","latitude":"44.9758061","website":"","popularity":1,"address":"15320 Ruynes-en-Margeride, France","category":"historical"},{"region":"auvergne","title":"Charroux","longitude":"3.162598","latitude":"46.185442","website":"","popularity":1,"address":"03140 Charroux","category":"city"},{"region":"auvergne","title":"Prieuré Saint-Pierre et Saint-Paul","longitude":"3.19326339999998","latitude":"46.5350609","website":"","popularity":1,"address":"Place Aristide Briand, 03210 Souvigny","category":"historical"},{"region":"auvergne","title":"Chateau de Chouvigny","longitude":"2.99407150000002","latitude":"46.1250039","website":"www.chouvigny.net","popularity":1,"address":"03450 Chouvigny","category":"historical"},{"region":"auvergne","title":"Vichy","longitude":"3.42548799999997","latitude":"46.131859","website":"www.ville-vichy.fr","popularity":3,"address":"03200 Vichy","category":"city"},{"region":"bourgogne","title":"Abbaye de Cluny","longitude":"4.65927439999996","latitude":"46.4341352","website":"www.cluny-abbaye.fr","popularity":3,"address":"Rue du 11 Août 1944, 71250 Cluny","category":"historical"},{"region":"bourgogne","title":"Semur-en-Brionnais","longitude":"4.088841","latitude":"46.262789","website":"","popularity":1,"address":"71110 Semur-en-Brionnais","category":"city"},{"region":"bourgogne","title":"Basilique du Sacré-Cœur de Jésus","longitude":"4.12180020000005","latitude":"46.4498579","website":"www.bourgogne-tourisme.com","popularity":1,"address":"1 Place Cardinal Perraud, 71600 Paray-le-Monial","category":"historical"},{"region":"bourgogne","title":"Musée de la Mine","longitude":"4.38264600000002","latitude":"46.7013311","website":"www.musee-mine-blanzy.fr","popularity":1,"address":"34 Rue du Bois Clair, 71450 Blanzy","category":"museum"},{"region":"bourgogne","title":"Château de Cormatin","longitude":"4.68440299999997","latitude":"46.5431261","website":"www.chateaudecormatin.com","popularity":1,"address":"Château de, 71460 Cormatin","category":"historical"},{"region":"bourgogne","title":"Parc Naturel Régional du Morvan","longitude":"4.09809889999997","latitude":"47.2754513","website":"www.parcdumorvan.org","popularity":1,"address":"Lieu-dit, Les Petites Fourches, 58230 Saint-Brisson","category":"nature"},{"region":"bourgogne","title":"Musée Rolin","longitude":"4.29935499999999","latitude":"46.945681","website":"www.autun.com","popularity":1,"address":"3 Rue des Bancs, 71400 Autun","category":"museum"},{"region":"bourgogne","title":"Musée Nicéphore Niépce","longitude":"4.85588099999995","latitude":"46.78013","website":"www.museeniepce.com","popularity":1,"address":"28 Quai des Messageries, 71100 Chalon-sur-Saône","category":"museum"},{"region":"bourgogne","title":"Lac de Saint-Agnan","longitude":"4.09085559999994","latitude":"47.3284263","website":"","popularity":1,"address":"Lac de Saint-Agnan, 58230 Saint-Agnan","category":"nature"},{"region":"bourgogne","title":"Arthel","longitude":"3.40918499999998","latitude":"47.244235","website":"","popularity":1,"address":"58700 Arthel","category":"city"},{"region":"bourgogne","title":"Bibracte","longitude":"4.04782699999998","latitude":"46.932354","website":"www.bibracte.fr","popularity":1,"address":"Mont Beuvray, 71990 Saint-Léger-sous-Beuvray","category":"museum"},{"region":"bourgogne","title":"La Charité-sur-Loire","longitude":"3.01801399999999","latitude":"47.177091","website":"www.ville-la-charite-sur-loire.fr","popularity":1,"address":"58400 La Charité-sur-Loire","category":"city"},{"region":"bourgogne","title":"Vézelay","longitude":"3.74614299999996","latitude":"47.465674","website":"","popularity":1,"address":"89450 Vézelay","category":"city"},{"region":"bourgogne","title":"Château de Berzé-le-Châtel","longitude":"4.68857819999994","latitude":"46.3857642","website":"www.berze.fr","popularity":1,"address":"71960 Berzé-le-Châtel","category":"historical"},{"region":"bourgogne","title":"Abbaye de Pontigny","longitude":"3.71376899999996","latitude":"47.909749","website":"www.abbayedepontigny.com","popularity":1,"address":"5 Avenue de l'Abbaye, 89230 Pontigny","category":"city"},{"region":"bourgogne","title":"Ancy-le-Franc","longitude":"4.165437","latitude":"47.774047","website":"","popularity":1,"address":"89160 Ancy-le-Franc","category":"city"},{"region":"bourgogne","title":"Château de Bazoches","longitude":"3.79465700000003","latitude":"47.379996","website":"","popularity":1,"address":"Château de Bazoches, 58190 Bazoches","category":"historical"},{"region":"bourgogne","title":"Noyers","longitude":"3.99566300000004","latitude":"47.695641","website":"www.noyers-sur-serein.com","popularity":1,"address":"89310 Noyers","category":"city"},{"region":"bourgogne","title":"Château de Châteauneuf","longitude":"4.64000329999999","latitude":"47.2176261","website":"www.bourgognefranchecomte.fr","popularity":1,"address":"21320 Chateauneuf","category":"historical"},{"region":"bourgogne","title":"Parc Noisot","longitude":"4.96222899999998","latitude":"47.245365","website":"","popularity":1,"address":"Parc Noisot, 21220 Fixin","category":"nature"},{"region":"bourgogne","title":"Palais des ducs et des Etats de Bourgogne","longitude":"5.04059140000004","latitude":"47.3216484","website":"mba.dijon.fr","popularity":1,"address":"1 Place de la Libération, 21000 Dijon","category":"historical"},{"region":"bourgogne","title":"Hôtel de Vogüé","longitude":"5.04219560000001","latitude":"47.3226771","website":"","popularity":1,"address":"8 Rue de la Chouette, 21000 Dijon","category":"historical"},{"region":"bourgogne","title":"Château du Clos de Vougeot","longitude":"4.95576800000003","latitude":"47.1750801","website":"www.closdevougeot.fr","popularity":1,"address":"Rue de la Montagne, 21640 Vougeot","category":"historical"},{"region":"bourgogne","title":"Abbaye de Fontenay","longitude":"4.38932560000001","latitude":"47.639611","website":"www.abbayedefontenay.com","popularity":1,"address":"21500 Montbard","category":"historical"},{"region":"bourgogne","title":"Hospices de Beaune","longitude":"4.83660729999997","latitude":"47.0221317","website":"hospices-de-beaune.com","popularity":1,"address":"Rue de l'Hôtel Dieu, 21200 Beaune","category":"historical"},{"region":"bourgogne","title":"Guédelon","longitude":"3.15504220000003","latitude":"47.5833887","website":"www.guedelon.fr","popularity":1,"address":"D955, 89520 Treigny","category":"city"},{"region":"bourgogne","title":"Château de Saint-Point","longitude":"4.61542250000002","latitude":"46.3435437","website":"","popularity":1,"address":"71520 Saint-Point","category":"historical"},{"region":"bretagne","title":"Château de Fougères","longitude":"-1.2088847","latitude":"48.3545799","website":"chateau-fougeres.com","popularity":1,"address":"Prom. Pauline Montembault, 35300 Fougères","category":"historical"},{"region":"bretagne","title":"Val sans Retour","longitude":"-2.28817270000002","latitude":"48.0047975","website":"tourisme-broceliande.bzh","popularity":1,"address":"Rue Neuve, 56430 Tréhorenteuc","category":"nature"},{"region":"bretagne","title":"Cancale","longitude":"-1.85227899999995","latitude":"48.67707","website":"www.ville-cancale.fr","popularity":1,"address":"35260 Cancale","category":"city"},{"region":"bretagne","title":"Forêt de Brocéliande","longitude":"-2.17395799999997","latitude":"48.018829","website":"tourisme-broceliande.bzh","popularity":1,"address":"1 Place du Roi Saint-Judicael, 35380 Paimpont","category":"nature"},{"region":"bretagne","title":"Parlement de Bretagne","longitude":"-1.67812129999993","latitude":"48.1128856","website":"","popularity":1,"address":"Parlement de Bretagne, 16 Rue Hoche, 35000 Rennes","category":"historical"},{"region":"bretagne","title":"Festival des Trans Musicales","longitude":"-1.69522600000005","latitude":"48.106978","website":"www.lestrans.com","popularity":1,"address":"35000 Rennes","category":"event"},{"region":"bretagne","title":"Les remparts de Saint-Malo","longitude":"-2.0285374","latitude":"48.6498605","website":"","popularity":3,"address":"35400 Saint-Malo","category":"historical"},{"region":"bretagne","title":"Festival La Route Du Rock","longitude":"-1.92570699999999","latitude":"48.5684488","website":"www.laroutedurock.com","popularity":1,"address":"35430 Saint-Père","category":"event"},{"region":"bretagne","title":"Fête des Remparts à Dinan","longitude":"-2.04120809999995","latitude":"48.4642458","website":"www.fete-remparts-dinan.com","popularity":1,"address":"22100 Dinan","category":"event"},{"region":"bretagne","title":"Cap Fréhel","longitude":"-2.31797110000002","latitude":"48.6835323","website":"www.paysdefrehel.com","popularity":1,"address":"Route du Cap, 22240 Fréhel","category":"nature"},{"region":"bretagne","title":"Cap d'Erquy","longitude":"-2.48646229999997","latitude":"48.6444162","website":"www.capderquy-valandre.com","popularity":1,"address":"Rue de Plaine Garenne, 22430 Erquy","category":"nature"},{"region":"bretagne","title":"Île-de-Bréhat","longitude":"-2.99993900000004","latitude":"48.846085","website":"www.iledebrehat.fr","popularity":3,"address":"Île-de-Bréhat","category":"nature"},{"region":"bretagne","title":"Plougrescant","longitude":"-3.22798399999999","latitude":"48.841945","website":"","popularity":1,"address":"22820 Plougrescant","category":"city"},{"region":"bretagne","title":"Côte de Granit Rose","longitude":"-3.48337409999999","latitude":"48.837506","website":"","popularity":3,"address":"22700 Perros-Guirec","category":"nature"},{"region":"bretagne","title":"Les Sept Îles","longitude":"-3.47433100000001","latitude":"48.89058","website":"","popularity":1,"address":"Les Sept Îles","category":"nature"},{"region":"bretagne","title":"La Vallée des Saints","longitude":"-3.54217170000004","latitude":"48.3715514","website":"www.lavalleedessaints.com","popularity":1,"address":"Quenequillec, 22160 Carnoët","category":"nature"},{"region":"bretagne","title":"Océanopolis","longitude":"-4.43575139999996","latitude":"48.3900092","website":"www.oceanopolis.com","popularity":3,"address":"Port de Plaisance du Moulin Blanc, 29200 Brest","category":"museum"},{"region":"bretagne","title":"Ouessant","longitude":"-5.09139479999999","latitude":"48.4613624","website":"","popularity":1,"address":"Ouessant","category":"city"},{"region":"bretagne","title":"Huelgoat","longitude":"-3.74564599999997","latitude":"48.364725","website":"","popularity":1,"address":"29690 Huelgoat","category":"city"},{"region":"bretagne","title":"Vieilles Charrues Festival","longitude":"-3.55049429999997","latitude":"48.2713875","website":"www.vieillescharrues.asso.fr","popularity":3,"address":"7 Rue Edgar Poe, 29270 Carhaix-Plouguer","category":"event"},{"region":"bretagne","title":"Pointe du Raz","longitude":"-4.73593600000004","latitude":"48.03963","website":"www.pointeduraz.com","popularity":1,"address":"29770 Plogoff","category":"nature"},{"region":"bretagne","title":"Phare d'Eckmühl","longitude":"-4.372794","latitude":"47.7980442","website":"","popularity":1,"address":"Place du Maréchal Davout, 29760 Penmarch","category":"historical"},{"region":"bretagne","title":"Locronan","longitude":"-4.20747900000003","latitude":"48.098711","website":"www.villedelocronan.fr","popularity":1,"address":"29180 Locronan","category":"city"},{"region":"bretagne","title":"Haliotika - La Cité de la Pêche","longitude":"-4.28489300000001","latitude":"47.792594","website":"www.haliotika.com","popularity":1,"address":"Terrasse Panoramique, Le port - BP 18, 29730 Guilvinec","category":"museum"},{"region":"bretagne","title":"Ville close de Concarneau","longitude":"-3.91623460000005","latitude":"47.8716751","website":"www.concarneau.fr","popularity":1,"address":"5 Rue Vauban, 29900 Concarneau","category":"city"},{"region":"bretagne","title":"Îles de Glénan","longitude":"-3.98660819999998","latitude":"47.7153304","website":"","popularity":3,"address":"Îles de Glénan","category":"nature"},{"region":"bretagne","title":"Festival Interceltique de Lorient","longitude":"-3.3682804","latitude":"47.7483918","website":"www.festival-interceltique.bzh","popularity":1,"address":"Rue Pierre Guergadic, 56100 Lorient","category":"event"},{"region":"bretagne","title":"Groix","longitude":"-3.46299950000002","latitude":"47.6376934","website":"","popularity":3,"address":"Groix","category":"nature"},{"region":"bretagne","title":"Île de Saint-Cado","longitude":"-3.18482900000004","latitude":"47.687619","website":"","popularity":1,"address":"Île de Saint-Cado, 56550 Belz","category":"nature"},{"region":"bretagne","title":"Belle-Île-en-Mer","longitude":"-3.18104270000003","latitude":"47.3364213","website":"","popularity":1,"address":"Belle-Île-en-Mer, 56360","category":"nature"},{"region":"bretagne","title":"Alignements de Carnac","longitude":"-3.08254250000005","latitude":"47.5925782","website":"www.menhirs-carnac.fr","popularity":3,"address":"LIeu-dit le Ménec, 56340 Carnac","category":"historical"},{"region":"bretagne","title":"Vannes","longitude":"-2.76084700000001","latitude":"47.658236","website":"","popularity":1,"address":"56000 Vannes","category":"city"},{"region":"bretagne","title":"Rochefort-en-Terre","longitude":"-2.33617900000002","latitude":"47.699705","website":"www.rochefort-en-terre.com","popularity":1,"address":"56220 Rochefort-en-Terre","category":"city"},{"region":"bretagne","title":"Fort la Latte","longitude":"-2.2848103","latitude":"48.6683283","website":"www.lefortlalatte.com","popularity":1,"address":"22240 Plévenon","category":"historical"},{"region":"centre","title":"Cathédrale Notre-Dame de Chartres","longitude":"1.48783709999998","latitude":"48.4478026","website":"www.cathedrale-chartres.org","popularity":1,"address":"16 Cloître Notre Dame, 28000 Chartres","category":"historical"},{"region":"centre","title":"Château de Maintenon","longitude":"1.57825600000001","latitude":"48.585608","website":"www.chateaudemaintenon.fr","popularity":1,"address":"2A Place Aristide Briand, 28130 Maintenon","category":"historical"},{"region":"centre","title":"Montigny-le-Gannelon","longitude":"1.23450500000001","latitude":"48.0134479","website":"","popularity":1,"address":"28220 Montigny-le-Gannelon","category":"city"},{"region":"centre","title":"Châteaudun","longitude":"1.32769600000006","latitude":"48.070369","website":"www.ville-chateaudun.com","popularity":1,"address":"28200 Châteaudun","category":"historical"},{"region":"centre","title":"Château de Chenonceau","longitude":"1.07030050000003","latitude":"47.3248696","website":"www.chenonceau.com","popularity":3,"address":"37150 Chenonceaux","category":"historical"},{"region":"centre","title":"Musée du Compagnonnage","longitude":"0.687357499999962","latitude":"47.3961561","website":"www.museecompagnonnage.fr","popularity":1,"address":"1 square Prosper Mérimée, 37000 Tours","category":"museum"},{"region":"centre","title":"Château du Clos Lucé","longitude":"0.992081399999961","latitude":"47.4102346","website":"vinci-closluce.com","popularity":1,"address":"2 Rue du Clos Lucé, 37400 Amboise","category":"historical"},{"region":"centre","title":"Château de Villandry","longitude":"0.514315200000055","latitude":"47.3398534","website":"www.chateauvillandry.fr","popularity":1,"address":"3 Rue Principale, 37510 Villandry","category":"historical"},{"region":"centre","title":"Loches","longitude":"0.997663999999986","latitude":"47.128158","website":"","popularity":1,"address":"37600 Loches","category":"city"},{"region":"centre","title":"Chinon","longitude":"0.24038500000006","latitude":"47.167296","website":"","popularity":1,"address":"37500 Chinon","category":"city"},{"region":"centre","title":"Château d'Azay-le-Rideau","longitude":"0.465736099999958","latitude":"47.2590231","website":"azay-le-rideau.monuments-nationaux.fr","popularity":1,"address":"Rue de Pineau, 37190 Azay-le-Rideau","category":"historical"},{"region":"centre","title":"Musée Balzac","longitude":"0.544668099999967","latitude":"47.2458073","website":"www.musee-balzac.fr","popularity":1,"address":"Rue du Château, 37190 Saché","category":"museum"},{"region":"centre","title":"Château Royal de Blois","longitude":"1.33058289999997","latitude":"47.5853918","website":"www.chateaudeblois.fr","popularity":1,"address":"6 Place du Château, 41000 Blois","category":"historical"},{"region":"centre","title":"Château de Chambord","longitude":"1.51721799999996","latitude":"47.616126","website":"www.chambord.org","popularity":3,"address":"Château, 41250 Chambord","category":"historical"},{"region":"centre","title":"Château de Cheverny","longitude":"1.45800489999999","latitude":"47.5002097","website":"www.chateau-cheverny.com","popularity":1,"address":"41700 Cheverny","category":"historical"},{"region":"centre","title":"Festival International des Jardins De Chaumont-sur-Loire","longitude":"1.18207129999996","latitude":"47.4766199","website":"www.domaine-chaumont.fr","popularity":1,"address":"478 Le Château, 41150 Chaumont-sur-Loire","category":"event"},{"region":"centre","title":"ZooParc De Beauval","longitude":"1.35309000000007","latitude":"47.2476534","website":"www.zoobeauval.com","popularity":3,"address":"Avenue du Blanc, 41110 St Aignan","category":"museum"},{"region":"centre","title":"Troo","longitude":"0.797974000000067","latitude":"47.777302","website":"","popularity":1,"address":"41800 Troo","category":"city"},{"region":"centre","title":"Cathédrale Sainte-Croix d'Orléans","longitude":"1.91025049999996","latitude":"47.9017948","website":"www.orleans.catholique.fr","popularity":1,"address":"Place Sainte-Croix, 45000 Orléans","category":"historical"},{"region":"centre","title":"Yèvre le Châtel","longitude":"2.33312799999999","latitude":"48.1601209","website":"","popularity":1,"address":"45300 Yèvre-la-Ville","category":"city"},{"region":"centre","title":"Cathédrale Saint-Étienne de Bourges","longitude":"2.39920499999994","latitude":"47.0821639","website":"cathedrale-bourges.monuments-nationaux.fr","popularity":1,"address":"Place Etienne Dolet, 18000 Bourges","category":"historical"},{"region":"centre","title":"Bourges","longitude":"2.39878199999998","latitude":"47.081012","website":"Festival Printemps de Bourges","popularity":1,"address":"18000 Bourges","category":"city"},{"region":"centre","title":"Château D'Apremont-sur-Allier","longitude":"3.04791380000006","latitude":"46.9050263","website":"www.apremont-sur-allier.com","popularity":1,"address":"89 Le Parc Floral, 18150 Apremont-sur-Allier","category":"historical"},{"region":"centre","title":"Château d'Ainay-le-Vieil","longitude":"2.55107539999995","latitude":"46.6676902","website":"chateau-ainaylevieil.fr","popularity":1,"address":"7 Rue du Château, 18200 Ainay-le-Vieil","category":"historical"},{"region":"centre","title":"Abbaye de Noirlac","longitude":"2.46112119999998","latitude":"46.744989","website":"www.abbayedenoirlac.fr","popularity":1,"address":"366 Noirlac, 18200 Bruère-Allichamps","category":"historical"},{"region":"centre","title":"Maison de George Sand","longitude":"1.97535570000002","latitude":"46.625167","website":"www.maison-george-sand.fr","popularity":1,"address":"2 place Sainte-Anne, 36400 Nohant-Vic","category":"museum"},{"region":"centre","title":"Château de Valençay","longitude":"1.5591518","latitude":"47.156846","website":"www.chateau-valencay.fr","popularity":1,"address":"2 Rue de Blois, 36600 Valençay","category":"historical"},{"region":"centre","title":"Château de Bouges","longitude":"1.67295910000007","latitude":"47.042437","website":"bouges.monuments-nationaux.fr","popularity":1,"address":"15 Rue du Château, 36110 Bouges-le-Château","category":"historical"},{"region":"centre","title":"Gargilesse-Dampierre","longitude":"1.61911169999996","latitude":"46.5096517","website":"","popularity":1,"address":"36190 Gargilesse-Dampierre","category":"city"},{"region":"champagne","title":"Lac Du Der","longitude":"4.76502140000002","latitude":"48.5536846","website":"www.lacduder.com","popularity":1,"address":"Rue du Port, 51290 Giffaumont-Champaubert","category":"nature"},{"region":"champagne","title":"Basilique Notre Dame de L'Epine","longitude":"4.47036709999998","latitude":"48.9770534","website":"chalons.catholique.fr","popularity":1,"address":"1 Rue Emile Barbier, 51460 L'Épine","category":"historical"},{"region":"champagne","title":"Cathédrale Notre-Dame de Reims","longitude":"4.03404190000003","latitude":"49.2538592","website":"www.cathedrale-reims.com","popularity":3,"address":"Place du Cardinal Luçon, 51100 Reims","category":"historical"},{"region":"champagne","title":"Moulin de Valmy 1792","longitude":"4.766752","latitude":"49.080484","website":"www.valmy1792.com","popularity":1,"address":"24 Rue Kellermann, 51800 Valmy","category":"museum"},{"region":"champagne","title":"Abbaye de Trois-Fontaines","longitude":"4.94918440000004","latitude":"48.7174462","website":"www.abbayedetroisfontaines.com","popularity":1,"address":"Place du Château, 51340 Trois-Fontaines-l'Abbaye","category":"historical"},{"region":"champagne","title":"Centre d'Interprétation Marne 14-18","longitude":"4.53171150000003","latitude":"49.1318689","website":"www.marne14-18.fr","popularity":1,"address":"4 Rlle Bayard BP 31, 51600 Suippes","category":"museum"},{"region":"champagne","title":"Place Ducale Charleville","longitude":"4.72082499999999","latitude":"49.7735236","website":"","popularity":1,"address":"33 Place Ducale, 08000 Charleville-Mézières","category":"city"},{"region":"champagne","title":"Musée de la Métallurgie Ardennaise","longitude":"4.75419579999993","latitude":"49.8606433","website":"www.musee-metallurgie-ardennes.fr","popularity":1,"address":"103 Rue de la Vallée, 08120 Bogny-sur-Meuse","category":"museum"},{"region":"champagne","title":"Roc la Tour","longitude":"4.78332799999998","latitude":"49.890961","website":"","popularity":1,"address":"Roc la Tour, 08800 Monthermé","category":"nature"},{"region":"champagne","title":"Château Fort de Sedan","longitude":"4.94922999999994","latitude":"49.702163","website":"www.chateau-fort-sedan.fr","popularity":1,"address":"Cours Clos du Château, 08200 Sedan","category":"historical"},{"region":"champagne","title":"Woinic, Le Colosse des Ardennes","longitude":"4.5038376","latitude":"49.5945785","website":"","popularity":1,"address":"A34 - Sortie 14, 08270 Saulces-Monclin","category":"historical"},{"region":"champagne","title":"Maison de l'Outil et de la Pensée Ouvrière","longitude":"4.07295799999997","latitude":"48.294648","website":"https://www.tourisme-troyes.com/les-musees-0/maison-de-l-outil-et-de-la-pensee-ouvriere-165829","popularity":1,"address":"7 Rue de la Trinité, 10000 Troyes","category":"museum"},{"region":"champagne","title":"Les Riceys","longitude":"4.36949000000004","latitude":"47.993819","website":"https://www.vignerons-les-riceys.com/","popularity":1,"address":"10340 Les Riceys","category":"city"},{"region":"champagne","title":"Jardin botanique de Marnay sur seine","longitude":"3.55572889999996","latitude":"48.5131396","website":"www.jardin-botanique.org","popularity":1,"address":"Chemin des Gougins, 10400 Marnay-sur-Seine","category":"nature"},{"region":"champagne","title":"Mémorial Charles de Gaulle","longitude":"4.87968820000003","latitude":"48.2232561","website":"www.memorial-charlesdegaulle.fr","popularity":1,"address":"Mémorial Charles de Gaulle, 52330 Colombey-les-Deux-Églises","category":"museum"},{"region":"champagne","title":"Langres","longitude":"5.33429699999999","latitude":"47.86683","website":"https://www.tourisme-langres.com/","popularity":1,"address":"52200 Langres","category":"city"},{"region":"champagne","title":"Abbaye d'Auberive","longitude":"5.06079","latitude":"47.7890296","website":"https://abbaye-auberive.com/","popularity":1,"address":"Place de l'abbaye, 52160 Auberive","category":"historical"},{"region":"champagne","title":"Fayl-Billot","longitude":"5.60173599999996","latitude":"47.7813469","website":"","popularity":1,"address":"52500 Fayl-Billot","category":"city"},{"region":"champagne","title":"Château du Grand Jardin","longitude":"5.14122190000001","latitude":"48.446682","website":"","popularity":1,"address":"5 Avenue de la Marne, 52300 Joinville","category":"historical"},{"region":"franchecomte","title":"Le Fort des Rousses","longitude":"6.05500410000002","latitude":"46.4799244","website":"www.fort-des-rousses.com","popularity":1,"address":"39220 Les Rousses","category":"historical"},{"region":"franchecomte","title":"Cascades du Hérisson Haut","longitude":"5.86751230000004","latitude":"46.6135302","website":"","popularity":1,"address":"Aux Étroits, 39130 Bonlieu","category":"nature"},{"region":"franchecomte","title":"Lac de Chalain","longitude":"5.78710950000004","latitude":"46.6719112","website":"","popularity":1,"address":"Lac de Chalain, 39130 Fontenu","category":"nature"},{"region":"franchecomte","title":"Château-Chalon","longitude":"5.62633789999995","latitude":"46.7549","website":"","popularity":1,"address":"39210 Château-Chalon","category":"city"},{"region":"franchecomte","title":"Grande Saline","longitude":"5.87654250000003","latitude":"46.937634","website":"www.salinesdesalins.com","popularity":1,"address":"Salines, Place des salines, 39110 Salins-les-Bains","category":"museum"},{"region":"franchecomte","title":"Nozeroy","longitude":"6.03863899999999","latitude":"46.775187","website":"","popularity":1,"address":"39250 Nozeroy","category":"city"},{"region":"franchecomte","title":"Transjurassienne","longitude":"6.02012939999997","latitude":"46.5249448","website":"latransju.com","popularity":1,"address":"","category":"event"},{"region":"franchecomte","title":"Parc naturel régional du Haut-Jura","longitude":"5.97372799999994","latitude":"46.37485","website":"www.parc-haut-jura.fr","popularity":1,"address":"","category":"nature"},{"region":"franchecomte","title":"Citadelle de Besançon","longitude":"6.03173770000001","latitude":"47.2318894","website":"www.citadelle.com","popularity":1,"address":"99 Rue des Fusillés de la Résistance, 25000","category":"historical"},{"region":"franchecomte","title":"Saline Royale d'Arc-et-Senans","longitude":"5.77762630000007","latitude":"47.0331753","website":"www.salineroyale.com","popularity":1,"address":"Grande Rue, 25610 Arc-et-Senans","category":"museum"},{"region":"franchecomte","title":"Grotte d'Osselle","longitude":"5.83672679999995","latitude":"47.1385102","website":"grotte-osselle.fr","popularity":1,"address":"42 Route des Grottes, 25410 Roset-Fluans","category":"museum"},{"region":"franchecomte","title":"Source du Lison","longitude":"6.01186419999999","latitude":"46.9656067","website":"","popularity":1,"address":"25330 Nans-Sous-Sainte-Anne","category":"nature"},{"region":"franchecomte","title":"Château de Joux","longitude":"6.37428199999999","latitude":"46.872411","website":"www.chateaudejoux.com","popularity":1,"address":"Route du Château, 25300 La Cluse-et-Mijoux","category":"historical"},{"region":"franchecomte","title":"Fort Saint Antoine - Cave d'affinage Marcel Petite","longitude":"6.33240909999995","latitude":"46.7887531","website":"www.comte-petite.com","popularity":1,"address":"Fort de Saint-Antoine, 25370 Saint-Antoine","category":"historical"},{"region":"franchecomte","title":"Mont-d'Or","longitude":"6.35302130000002","latitude":"46.7348202","website":"","popularity":1,"address":"25370 Longevilles-Mont-d'Or","category":"nature"},{"region":"franchecomte","title":"Saut du Doubs","longitude":"6.71409100000005","latitude":"47.0871789","website":"www.sautdudoubs.fr","popularity":1,"address":"Le Saut-du-Doubs 227, 2416 Les Brenets, Suisse","category":"nature"},{"region":"franchecomte","title":"Château de Belvoir","longitude":"6.60309759999996","latitude":"47.3180321","website":"www.chateau-belvoir.com","popularity":1,"address":"1 Rue du Bourg, 25430 Belvoir","category":"historical"},{"region":"franchecomte","title":"Musée de l'Aventure Peugeot","longitude":"6.83106769999995","latitude":"47.516129","website":"www.museepeugeot.com","popularity":1,"address":"Carrefour de l'Europe, 25600 Sochaux","category":"museum"},{"region":"franchecomte","title":"Gouffre de Poudrey","longitude":"6.24598500000002","latitude":"47.16627","website":"www.gouffredepoudrey.com","popularity":1,"address":"1 lieu-dit Au Puits de Poudrey, 25580 Étalans","category":"museum"},{"region":"franchecomte","title":"Château médiéval d'Oricourt","longitude":"6.39186500000005","latitude":"47.596071","website":"www.oricourt.com","popularity":1,"address":"1 rue Nicolas Rolin, 70110 Oricourt","category":"historical"},{"region":"franchecomte","title":"Ballon d'Alsace","longitude":"6.84505469999999","latitude":"47.8223258","website":"www.ballondalsace.fr","popularity":1,"address":"90200 Lepuix","category":"nature"},{"region":"franchecomte","title":"Le Lion de Bartholdi","longitude":"6.86458029999994","latitude":"47.6366683","website":"musees.belfort.fr","popularity":1,"address":"Allée du Souvenir Français, 90000 Belfort","category":"museum"},{"region":"iledefrance","title":"Square du Vert-Galant","longitude":"2.34042239999997","latitude":"48.8573303","website":"www.parisinfo.com","popularity":1,"address":"15 Place du Pont Neuf, 75001 Paris","category":"nature"},{"region":"iledefrance","title":"Le Centre Pompidou","longitude":"2.35224500000004","latitude":"48.860642","website":"www.centrepompidou.fr","popularity":1,"address":"Place Georges-Pompidou, 75004 Paris","category":"museum"},{"region":"iledefrance","title":"Le Jardin du Luxembourg","longitude":"2.33716049999998","latitude":"48.8462217","website":"75006 Paris","popularity":3,"address":"15 Rue de Vaugirard, 75291 Paris","category":"nature"},{"region":"iledefrance","title":"Musée d'Orsay","longitude":"2.32656139999995","latitude":"48.8599614","website":"www.musee-orsay.fr","popularity":1,"address":"1 Rue de la Légion d'Honneur, 75007 Paris","category":"museum"},{"region":"iledefrance","title":"Cathédrale Saint-Alexandre-Nevsky de Paris","longitude":"2.30192199999999","latitude":"48.8776407","website":"www.cathedrale-orthodoxe.com","popularity":1,"address":"12 Rue Daru, 75008 Paris","category":"historical"},{"region":"iledefrance","title":"Obélisque de Louxor","longitude":"2.32111929999996","latitude":"48.8654785","website":"","popularity":1,"address":"Place de la Concorde, 75008 Paris","category":"historical"},{"region":"iledefrance","title":"Canal Saint-Martin","longitude":"2.3671276","latitude":"48.8689413","website":"","popularity":1,"address":"35 Quai de Jemmapes, 75010 Paris","category":"historical"},{"region":"iledefrance","title":"Les Catacombes de Paris","longitude":"2.3324222","latitude":"48.8338325","website":"www.catacombes.paris.fr","popularity":1,"address":"1 Avenue du Colonel Henri Rol-Tanguy, 75014 Paris","category":"historical"},{"region":"iledefrance","title":"Sacré-Cœur","longitude":"2.34310430000005","latitude":"48.8867046","website":"www.sacre-coeur-montmartre.com","popularity":3,"address":"35 Rue du Chevalier de la Barre, 75018 Paris","category":"historical"},{"region":"iledefrance","title":"Cimetière du Père Lachaise","longitude":"2.39332760000002","latitude":"48.861393","website":"","popularity":1,"address":"8 Boulevard de Ménilmontant, 75020 Paris","category":"historical"},{"region":"iledefrance","title":"Basilique Cathédrale de Saint-Denis","longitude":"2.35983540000007","latitude":"48.9354612","website":"saint-denis.monuments-nationaux.fr","popularity":1,"address":"1 Rue de la Légion d'Honneur, 93200 Saint-Denis","category":"historical"},{"region":"iledefrance","title":"Musée du Louvre","longitude":"2.33764399999995","latitude":"48.8606111","website":"www.louvre.fr","popularity":3,"address":"Rue de Rivoli, 75001 Paris","category":"museum"},{"region":"iledefrance","title":"Musée de l'Air et de l'Espace","longitude":"2.43461830000001","latitude":"48.946587","website":"www.museeairespace.fr","popularity":1,"address":"Aéroport de Paris-Le Bourget, 93352 Le Bourget","category":"museum"},{"region":"iledefrance","title":"Parc zoologique de Paris","longitude":"2.41453799999999","latitude":"48.8334109","website":"www.parczoologiquedeparis.fr","popularity":1,"address":"Avenue Daumesnil, 75012 Paris","category":"museum"},{"region":"iledefrance","title":"Château de Malmaison","longitude":"2.16684799999996","latitude":"48.8708001","website":"www.chateau-malmaison.fr","popularity":1,"address":"Avenue du Château de la Malmaison, 92500 Rueil-Malmaison","category":"historical"},{"region":"iledefrance","title":"Domaine national de Saint-Cloud","longitude":"2.2167187","latitude":"48.8377327","website":"www.domaine-saint-cloud.fr","popularity":1,"address":"Avenue de la Grille d'Honneur, 92210 Saint-Cloud","category":"nature"},{"region":"iledefrance","title":"Parvis de la Défense","longitude":"2.23773110000002","latitude":"48.8919808","website":"ladefense.fr","popularity":1,"address":"76 Rue de la Demi Lune, 92800 Puteaux","category":"city"},{"region":"iledefrance","title":"Château de Chantilly","longitude":"2.48520340000005","latitude":"49.1938467","website":"www.domainedechantilly.com","popularity":3,"address":"60500 Chantilly","category":"historical"},{"region":"iledefrance","title":"Château de Vaux le Vicomte","longitude":"2.71413499999994","latitude":"48.565812","website":"www.vaux-le-vicomte.com","popularity":1,"address":"77950 Maincy","category":"historical"},{"region":"iledefrance","title":"Château de Fontainebleau","longitude":"2.69949580000002","latitude":"48.4020962","website":"www.musee-chateau-fontainebleau.fr","popularity":1,"address":"77300 Fontainebleau","category":"historical"},{"region":"iledefrance","title":"Disneyland Parc","longitude":"2.77678070000002","latitude":"48.8726382","website":"www.disneylandparis.com","popularity":3,"address":"Boulevard de Parc, 77700 Chessy","category":"city"},{"region":"iledefrance","title":"Château de Versailles","longitude":"2.12035539999999","latitude":"48.8048649","website":"www.chateauversailles.fr","popularity":3,"address":"Place d'Armes, 78000 Versailles","category":"historical"},{"region":"iledefrance","title":"Cité des sciences et de l'industrie","longitude":"2.38789959999997","latitude":"48.8955948","website":"www.cite-sciences.fr","popularity":1,"address":"30 Avenue Corentin Cariou, 75019 Paris","category":"museum"},{"region":"iledefrance","title":"Arc de Triomphe","longitude":"2.29502750000006","latitude":"48.8737917","website":"arc-de-triomphe.monuments-nationaux.fr","popularity":3,"address":"Place Charles de Gaulle, 75008 Paris","category":"historical"},{"region":"iledefrance","title":"Tour Eiffel","longitude":"2.29448130000003","latitude":"48.8583701","website":"www.toureiffel.paris","popularity":3,"address":"Champ de Mars, 5 Avenue Anatole France, 75007 Paris","category":"historical"},{"region":"iledefrance","title":"Hôtel des Invalides","longitude":"2.31270589999997","latitude":"48.856529","website":"www.musee-armee.fr","popularity":1,"address":"129 Rue de Grenelle, 75007 Paris","category":"historical"},{"region":"iledefrance","title":"Grand Palais","longitude":"2.31245439999998","latitude":"48.8661091","website":"www.grandpalais.fr","popularity":1,"address":"3 Avenue du Général Eisenhower, 75008 Paris","category":"museum"},{"region":"languedoc","title":"Palais des rois de Majorque","longitude":"2.89426619999995","latitude":"42.693842","website":"www.ledepartement66.fr","popularity":1,"address":"Rue des Archers, 66000 Perpignan","category":"historical"},{"region":"languedoc","title":"Forteresse de Salses","longitude":"2.91824889999998","latitude":"42.8397276","website":"www.forteresse-salses.fr","popularity":1,"address":"66600 Salses-le-Château","category":"historical"},{"region":"languedoc","title":"Collioure","longitude":"3.08463099999994","latitude":"42.526752","website":"","popularity":1,"address":"66190 Collioure","category":"city"},{"region":"languedoc","title":"Côte Vermeille","longitude":"3.11541990000001","latitude":"42.5133169","website":"","popularity":1,"address":"","category":"nature"},{"region":"languedoc","title":"Abbaye Saint-Martin-du-Canigou","longitude":"2.40098829999999","latitude":"42.5282041","website":"www.stmartinducanigou.org","popularity":1,"address":"66820 Casteil","category":"historical"},{"region":"languedoc","title":"Pic du Canigou","longitude":"2.45665600000007","latitude":"42.5188823","website":"","popularity":1,"address":"Pic du Canigou, 66500 Vernet-les-Bains","category":"nature"},{"region":"languedoc","title":"Gorges De Galamus (Pyrénées Orientales)","longitude":"2.47993259999998","latitude":"42.8365512","website":"www.gorgesdegalamus.fr","popularity":1,"address":"Saint-Antoine, 66220 Saint-Paul-de-Fenouillet","category":"nature"},{"region":"languedoc","title":"Canal du Midi","longitude":"2.4054572","latitude":"43.2427146","website":"","popularity":1,"address":"Canal du Midi","category":"nature"},{"region":"languedoc","title":"Château de Peyrepertuse","longitude":"2.55541819999996","latitude":"42.8708297","website":"www.peyrepertuse.com","popularity":3,"address":"11350 Duilhac-sous-Peyrepertuse","category":"historical"},{"region":"languedoc","title":"Cité de Carcassonne","longitude":"2.36419609999996","latitude":"43.2060816","website":"www.remparts-carcassonne.fr","popularity":3,"address":"1 Rue Viollet le Duc, 11000 Carcassonne","category":"historical"},{"region":"languedoc","title":"Castelnaudary","longitude":"1.95333000000005","latitude":"43.317118","website":"www.ville-castelnaudary.fr","popularity":1,"address":"11400 Castelnaudary","category":"city"},{"region":"languedoc","title":"Leucate","longitude":"3.02816299999995","latitude":"42.9103039","website":"","popularity":1,"address":"11370 Leucate","category":"city"},{"region":"languedoc","title":"Musée Fabre","longitude":"3.88018880000004","latitude":"43.6117463","website":"museefabre.montpellier3m.fr","popularity":1,"address":"39 Boulevard Bonne Nouvelle, 34000 Montpellier","category":"museum"},{"region":"languedoc","title":"Planet Ocean Montpellier","longitude":"3.917057","latitude":"43.60277","website":"www.planetoceanmontpellier.fr","popularity":1,"address":"Centre commercial Odysseum, Allée Ulysse, 34000 Montpellier","category":"museum"},{"region":"languedoc","title":"Murviel-lès-Montpellier","longitude":"3.73649699999999","latitude":"43.604431","website":"","popularity":1,"address":"34570 Murviel-lès-Montpellier","category":"city"},{"region":"languedoc","title":"Site archéologique Lattara - Musée Archéologique Henri Prades","longitude":"3.9085374","latitude":"43.566216","website":"museearcheo.montpellier3m.fr","popularity":1,"address":"390 Route de Pérols, 34970 Lattes","category":"museum"},{"region":"languedoc","title":"Saint-Guilhem-le-Désert","longitude":"3.54901500000005","latitude":"43.734434","website":"","popularity":1,"address":"34150 Saint-Guilhem-le-Désert","category":"city"},{"region":"languedoc","title":"Cirque de Mourèze","longitude":"3.3581332","latitude":"43.6225295","website":"","popularity":1,"address":"34800 Mourèze","category":"nature"},{"region":"languedoc","title":"Cirque de Navacelles","longitude":"3.51122429999998","latitude":"43.8952443","website":"www.tourismecevennesnavacelles.com","popularity":1,"address":"Route de Navacelles, 30770 Blandas","category":"nature"},{"region":"languedoc","title":"Grotte des Demoiselles","longitude":"3.7447694","latitude":"43.9074752","website":"www.demoiselles.com","popularity":1,"address":"D986, 34190 Saint-Bauzille-de-Putois","category":"museum"},{"region":"languedoc","title":"Tours et remparts d’Aigues-Mortes","longitude":"4.18959399999994","latitude":"43.568025","website":"www.aigues-mortes-monument.fr","popularity":1,"address":"30220 Aigues-Mortes","category":"historical"},{"region":"languedoc","title":"Pointe de l'Espiguette","longitude":"4.12217299999998","latitude":"43.496656","website":"","popularity":1,"address":"Pointe de l'Espiguette, 30240 Le Grau-du-Roi","category":"nature"},{"region":"languedoc","title":"Arènes de Nîmes","longitude":"4.35961459999999","latitude":"43.834904","website":"arenes-nimes.com","popularity":3,"address":"Boulevard des Arènes, 30000 Nîmes","category":"historical"},{"region":"languedoc","title":"Pont du Gard","longitude":"4.53495999999996","latitude":"43.947566","website":"www.pontdugard.fr","popularity":3,"address":"400 Route du Pont du Gard, 30210 Vers-Pont-du-Gard","category":"historical"},{"region":"languedoc","title":"Parc national des Cévennes","longitude":"3.71220360000007","latitude":"44.2641552","website":"www.cevennes-parcnational.fr","popularity":1,"address":"","category":"nature"},{"region":"languedoc","title":"Mont Lozère","longitude":"3.73934299999996","latitude":"44.425963","website":"","popularity":1,"address":"Mont Lozère, 48220 Pont-de-Montvert-Sud-Mont-Lozère","category":"nature"},{"region":"languedoc","title":"Grotte Aven Armand","longitude":"3.35564799999997","latitude":"44.222505","website":"https://www.aven-armand.com/","popularity":1,"address":"Aven Armand, 48150 Hures-la-Parade","category":"museum"},{"region":"languedoc","title":"Gorges du Tarn","longitude":"3.23419999999999","latitude":"44.2302419","website":"","popularity":1,"address":"Gorges du Tarn, 48150 Saint-Pierre-des-Tripiers","category":"nature"},{"region":"limousin","title":"Château de Châlucet","longitude":"1.31111099999998","latitude":"45.732222","website":"www.chalucet.com","popularity":1,"address":"Lieu Dit Chalusset, 87260 Saint-Jean-Ligoure","category":"historical","wiki":"918146"},{"region":"limousin","title":"Lac de Saint-Pardoux","longitude":"1.28933110000003","latitude":"46.0323849","website":"","popularity":1,"address":"Lac de Saint-Pardoux","category":"nature","wiki":"800838"},{"region":"limousin","title":"Oradour-sur-Glane","longitude":"1.03274599999997","latitude":"45.9310789","website":"","popularity":1,"address":"87520 Oradour-sur-Glane","category":"city","wiki":"70911"},{"region":"limousin","title":"Ruines de la Forteresse de Crozant","longitude":"1.62083619999999","latitude":"46.3940651","website":"www.limousin-medieval.com","popularity":1,"address":"16 Route Isabelle d'Angouleme, 23160 Crozant","category":"historical","wiki":"2998249"},{"region":"limousin","title":"Labyrinthe Géant des Monts de Guéret","longitude":"1.86106700000005","latitude":"46.147938","website":"www.labyrinthe-gueret.fr","popularity":1,"address":"Route de Bourganeuf, 23000 Guéret","category":"nature","wiki":"5039646"},{"region":"limousin","title":"Château de Villemonteix","longitude":"2.14322949999996","latitude":"46.1078986","website":"www.chateau-villemonteix.cla.fr","popularity":1,"address":"23150 Saint-Pardoux-les-Cards","category":"historical","wiki":"2966498"},{"region":"limousin","title":"Masgot","longitude":"2.03538849999995","latitude":"46.0358129","website":"www.masgot.fr","popularity":1,"address":"23480 Fransèches","category":"city","wiki":"10453878"},{"region":"limousin","title":"Parc Naturel Régional de Millevaches en Limousin","longitude":"2.09501449999993","latitude":"45.6426141","website":"www.pnr-millevaches.fr","popularity":1,"address":"7 route d’Aubusson, 19290 Millevaches","category":"nature","wiki":"743513"},{"region":"limousin","title":"Uzerche","longitude":"1.56345699999997","latitude":"45.424066","website":"www.uzerche.fr","popularity":1,"address":"19140 Uzerche","category":"city","wiki":"2966292"},{"region":"limousin","title":"Collonges-la-Rouge","longitude":"1.654225","latitude":"45.060939","website":"","popularity":1,"address":"19500 Collonges-la-Rouge","category":"city","wiki":"98044"},{"region":"limousin","title":"Curemonte","longitude":"1.74233700000002","latitude":"45.000278","website":"","popularity":1,"address":"19500 Curemonte","category":"city","wiki":"72289"},{"region":"limousin","title":"Les Tours de Merle","longitude":"2.07454899999993","latitude":"45.0641872","website":"www.toursdemerle.fr","popularity":1,"address":"Les Tours de Merle, 19220 Saint-Geniez-ô-Merle","category":"historical","wiki":"1818149"},{"region":"limousin","title":"Musée du cloître","longitude":"1.77097649999996","latitude":"45.2678045","website":"","popularity":1,"address":"Place de la Cathédrale, 19000 Tulle","category":"museum","wiki":"3189860"},{"region":"limousin","title":"Lac de la Triouzoune","longitude":"2.29252329999997","latitude":"45.395101","website":"","popularity":1,"address":"Lac de la Triouzoune, 19160","category":"nature","wiki":"3049822"},{"region":"limousin","title":"Site de Saint Nazaire","longitude":"2.38728909999998","latitude":"45.4149725","website":"","popularity":1,"address":"19110 Sarroux - St Julien, France","category":"nature","wiki":"10116892"}]